[{
  "iata": "FRANG",
  "tgvmax_name": "ANGOULEME",
  "name": "Angoulême",
  "city": "Angoulême",
  "location": {
    "lat": 45.648377,
    "lng": 0.1562369
  }
}, {
  "iata": "FRDJU",
  "tgvmax_name": "MASSY TGV",
  "name": "Massy",
  "city": "Massy",
  "location": {
    "lat": 48.730756,
    "lng": 2.27137
  }
}, {
  "iata": "FRNCY",
  "tgvmax_name": "ANNECY",
  "name": "Annecy",
  "city": "Annecy",
  "location": {
    "lat": 45.899247,
    "lng": 6.129384
  }
}, {
  "iata": "FRBQT",
  "tgvmax_name": "FORBACH",
  "name": "Forbach",
  "city": "Forbach",
  "location": {
    "lat": 49.186515,
    "lng": 6.895295000000001
  }
}, {
  "iata": "FREAH",
  "tgvmax_name": "CHAMPAGNE-ARDENNE",
  "name": "Champagne-Ardenne",
  "city": "Champagne-Ardenne",
  "location": {
    "lat": 48.7934092,
    "lng": 4.4725249
  }
}, {
  "iata": "FREAM",
  "tgvmax_name": "LORRAINE TGV",
  "name": "Lorraine",
  "city": "Lorraine",
  "location": {
    "lat": 48.8744233,
    "lng": 6.2080932
  }
}, {
  "iata": "FRVNE",
  "tgvmax_name": "VANNES",
  "name": "Vannes",
  "city": "Vannes",
  "location": {
    "lat": 47.658236,
    "lng": -2.760847
  }
}, {
  "iata": "FRACL",
  "tgvmax_name": "ANGERS ST LAUD",
  "name": "Angers Saint-Laud",
  "city": "Angers",
  "location": {
    "lat": 47.4646946,
    "lng": -0.5563326
  }
}, {
  "iata": "FRPNO",
  "tgvmax_name": "PARIS (intramuros)",
  "name": "Paris Gare du Nord",
  "city": "Paris",
  "location": {
    "lat": 48.88103267969827,
    "lng": 2.355270767773585
  }
}, {
  "iata": "FRMLW",
  "tgvmax_name": "AEROPORT CDG2 TGV ROISSY",
  "name": "Aéroport Charles de Gaulle",
  "city": "Paris",
  "location": {
    "lat": 49.0036746,
    "lng": 2.5711981
  }
}, {
  "iata": "DEKLT",
  "tgvmax_name": "KAISERSLAUTERN HBF",
  "name": "Kaiserslautern Hbf",
  "city": "Kaiserslautern Hbf",
  "location": {
    "lat": 49.4362405,
    "lng": 7.768648499999999
  }
}, {
  "iata": "DEFRH",
  "tgvmax_name": "FRANKFURT MAIN HBF",
  "name": "Francfort-sur-le-Main",
  "city": "Gare centrale de Francfort-sur-le-Main",
  "location": {
    "lat": 50.10652899999999,
    "lng": 8.6621618
  }
}, {
  "iata": "FRAET",
  "tgvmax_name": "LE MANS",
  "name": "Le Mans",
  "city": "Le Mans",
  "location": {
    "lat": 48.00611000000001,
    "lng": 0.199556
  }
}, {
  "iata": "DEMHG",
  "tgvmax_name": "MANNHEIM HBF",
  "name": "Mannheim",
  "city": "Mannheim",
  "location": {
    "lat": 49.4796984,
    "lng": 8.469814
  }
}, {
  "iata": "FRAEG",
  "tgvmax_name": "STRASBOURG",
  "name": "Strasbourg",
  "city": "Strasbourg",
  "location": {
    "lat": 48.5734053,
    "lng": 7.752111299999999
  }
}, {
  "iata": "FRNTE",
  "tgvmax_name": "NANTES",
  "name": "Nantes",
  "city": "Nantes",
  "location": {
    "lat": 47.218371,
    "lng": -1.553621
  }
}, {
  "iata": "FRBDT",
  "tgvmax_name": "RETHEL",
  "name": "Rethel",
  "city": "Rethel",
  "location": {
    "lat": 49.5084965,
    "lng": 4.3662756
  }
}, {
  "iata": "DESBK",
  "tgvmax_name": "SARREBRUCK/SAARBRUECKEN",
  "name": "Sarrebruck",
  "city": "Sarrebruck",
  "location": {
    "lat": 49.2381697,
    "lng": 6.997547
  }
}, {
  "iata": "FRMLT",
  "tgvmax_name": "MACON LOCHE TGV",
  "name": "Loché",
  "city": "Loché",
  "location": {
    "lat": 46.2787679,
    "lng": 4.7703525
  }
}, {
  "iata": "FRMLV",
  "tgvmax_name": "MARNE LA VALLEE CHESSY",
  "name": "Marne-la-Vallée Chessy",
  "city": "Marne-la-Vallée Chessy",
  "location": {
    "lat": 48.8704437,
    "lng": 2.7828241
  }
}, {
  "iata": "FRHZK",
  "tgvmax_name": "HAZEBROUCK",
  "name": "Hazebrouck",
  "city": "Hazebrouck",
  "location": {
    "lat": 50.72748,
    "lng": 2.542555
  }
}, {
  "iata": "FRXBH",
  "tgvmax_name": "BETHUNE",
  "name": "Béthune",
  "city": "Béthune",
  "location": {
    "lat": 50.531036,
    "lng": 2.63926
  }
}, {
  "iata": "FRAEK",
  "tgvmax_name": "MULHOUSE VILLE",
  "name": "Mulhouse",
  "city": "Mulhouse",
  "location": {
    "lat": 47.750839,
    "lng": 7.335888
  }
}, {
  "iata": "FREAJ",
  "tgvmax_name": "MEUSE TGV",
  "name": "Meuse",
  "city": "Meuse",
  "location": {
    "lat": 49.0824319,
    "lng": 5.282399700000001
  }
}, {
  "iata": "FRADI",
  "tgvmax_name": "DUNKERQUE",
  "name": "Dunkerque",
  "city": "Dunkerque",
  "location": {
    "lat": 51.0343684,
    "lng": 2.3767763
  }
}, {
  "iata": "FRQRV",
  "tgvmax_name": "ARRAS",
  "name": "Arras",
  "city": "Arras",
  "location": {
    "lat": 50.291002,
    "lng": 2.777535
  }
}, {
  "iata": "FRXTH",
  "tgvmax_name": "THIONVILLE",
  "name": "Thionville",
  "city": "Thionville",
  "location": {
    "lat": 49.357571,
    "lng": 6.168425999999999
  }
}, {
  "iata": "DESGT",
  "tgvmax_name": "STUTTGART HBF",
  "name": "Stuttgart",
  "city": "Stuttgart",
  "location": {
    "lat": 48.783206,
    "lng": 9.182288999999999
  }
}, {
  "iata": "FRXEB",
  "tgvmax_name": "EVIAN LES BAINS",
  "name": "Évian-les-Bains",
  "city": "Évian-les-Bains",
  "location": {
    "lat": 46.401488,
    "lng": 6.590948999999999
  }
}, {
  "iata": "FRXLE",
  "tgvmax_name": "LENS",
  "name": "Lens",
  "city": "Lens",
  "location": {
    "lat": 50.42893000000001,
    "lng": 2.83183
  }
}, {
  "iata": "FRXAI",
  "tgvmax_name": "AIX LES BAINS LE REVARD",
  "name": "Aix-les-Bains",
  "city": "Aix-les-Bains",
  "location": {
    "lat": 45.6881598,
    "lng": 5.9093079
  }
}, {
  "iata": "FRXDN",
  "tgvmax_name": "DOUAI",
  "name": "Douai",
  "city": "Douai",
  "location": {
    "lat": 50.367874,
    "lng": 3.080602
  }
}, {
  "iata": "FRXVS",
  "tgvmax_name": "VALENCIENNES",
  "name": "Valenciennes",
  "city": "Valenciennes",
  "location": {
    "lat": 50.357113,
    "lng": 3.518332
  }
}, {
  "iata": "FRQNJ",
  "tgvmax_name": "ANNEMASSE",
  "name": "Annemasse",
  "city": "Annemasse",
  "location": {
    "lat": 46.19325300000001,
    "lng": 6.234158
  }
}, {
  "iata": "FRXCZ",
  "tgvmax_name": "CHARLEVILLE MEZIERES",
  "name": "Charleville-Mézières",
  "city": "Charleville-Mézières",
  "location": {
    "lat": 49.76208500000001,
    "lng": 4.726096
  }
}, {
  "iata": "FRXCX",
  "tgvmax_name": "CHATELLERAULT",
  "name": "Châtellerault",
  "city": "Châtellerault",
  "location": {
    "lat": 46.816487,
    "lng": 0.548146
  }
}, {
  "iata": "FRXAC",
  "tgvmax_name": "ARCACHON",
  "name": "Arcachon",
  "city": "Arcachon",
  "location": {
    "lat": 44.652297,
    "lng": -1.1785016
  }
}, {
  "iata": "FRXBK",
  "tgvmax_name": "BOURG EN BRESSE",
  "name": "Bourg-en-Bresse",
  "city": "Bourg-en-Bresse",
  "location": {
    "lat": 46.20516749999999,
    "lng": 5.2255007
  }
}, {
  "iata": "FRCMF",
  "tgvmax_name": "CHAMBERY CHALLES LES EAUX",
  "name": "Chambéry - Challes-Les-Eaux",
  "city": "Chambéry - Challes-Les-Eaux",
  "location": {
    "lat": 45.57144812202434,
    "lng": 5.919534658903948
  }
}, {
  "iata": "FRFCJ",
  "tgvmax_name": "LA TESTE",
  "name": "La Teste-de-Buch",
  "city": "La Teste-de-Buch",
  "location": {
    "lat": 44.631077,
    "lng": -1.148224
  }
}, {
  "iata": "CHGVA",
  "tgvmax_name": "GENEVE",
  "name": "Genève",
  "city": "Genève",
  "location": {
    "lat": 46.2043907,
    "lng": 6.1431577
  }
}, {
  "iata": "FRXLR",
  "tgvmax_name": "LIBOURNE",
  "name": "Libourne",
  "city": "Libourne",
  "location": {
    "lat": 44.91299799999999,
    "lng": -0.243985
  }
}, {
  "iata": "FRABA",
  "tgvmax_name": "DIJON VILLE",
  "name": "Dijon",
  "city": "Dijon",
  "location": {
    "lat": 47.322047,
    "lng": 5.04148
  }
}, {
  "iata": "FRXSY",
  "tgvmax_name": "SETE",
  "name": "Sète",
  "city": "Sète",
  "location": {
    "lat": 43.4078758,
    "lng": 3.7008219
  }
}, {
  "iata": "LULUX",
  "tgvmax_name": "LUXEMBOURG",
  "name": "Luxembourg",
  "city": "Luxembourg",
  "location": {
    "lat": 49.815273,
    "lng": 6.129582999999999
  }
}, {
  "iata": "FRAIE",
  "tgvmax_name": "AIX EN PROVENCE TGV",
  "name": "Aix-en-Provence",
  "city": "Aix-en-Provence",
  "location": {
    "lat": 43.529742,
    "lng": 5.447426999999999
  }
}, {
  "iata": "FRPMO",
  "tgvmax_name": "PARIS (intramuros)",
  "name": "Paris Montparnasse",
  "city": "Paris",
  "location": {
    "lat": 48.838396229341846,
    "lng": 2.317408809286966
  }
}, {
  "iata": "FRBZR",
  "tgvmax_name": "BEZIERS",
  "name": "Béziers",
  "city": "Béziers",
  "location": {
    "lat": 43.344233,
    "lng": 3.215795
  }
}, {
  "iata": "DEQKA",
  "tgvmax_name": "KARLSRUHE HBF",
  "name": "Karlsruhe Hbf",
  "city": "Karlsruhe Hbf",
  "location": {
    "lat": 48.9939401,
    "lng": 8.4009743
  }
}, {
  "iata": "FRFAC",
  "tgvmax_name": "FACTURE BIGANOS",
  "name": "Facture Biganos",
  "city": "Biganos",
  "location": {
    "lat": 44.6373131,
    "lng": -0.9662601
  }
}, {
  "iata": "FRXAG",
  "tgvmax_name": "AGDE",
  "name": "Agde",
  "city": "Agde",
  "location": {
    "lat": 43.3088031,
    "lng": 3.4768109
  }
}, {
  "iata": "FRFNI",
  "tgvmax_name": "NIMES",
  "name": "Nîmes",
  "city": "Nîmes",
  "location": {
    "lat": 43.836699,
    "lng": 4.360054
  }
}, {
  "iata": "FRLPD",
  "tgvmax_name": "LYON (intramuros)",
  "name": "Lyon Part-Dieu",
  "city": "Lyon",
  "location": {
    "lat": 45.760689579011945,
    "lng": 4.861150120208281
  }
}, {
  "iata": "FRPLY",
  "tgvmax_name": "PARIS (intramuros)",
  "name": "Paris Gare de Lyon",
  "city": "Paris",
  "location": {
    "lat": 48.84512793906458,
    "lng": 2.3728206365222677
  }
}, {
  "iata": "FRLDE",
  "tgvmax_name": "LOURDES",
  "name": "Lourdes",
  "city": "Lourdes",
  "location": {
    "lat": 43.091463,
    "lng": -0.045726
  }
}, {
  "iata": "FREIP",
  "tgvmax_name": "SURGERES",
  "name": "Surgères",
  "city": "Surgères",
  "location": {
    "lat": 46.104913,
    "lng": -0.7514109999999999
  }
}, {
  "iata": "FRACG",
  "tgvmax_name": "DAX",
  "name": "Dax",
  "city": "Dax",
  "location": {
    "lat": 43.708608,
    "lng": -1.051945
  }
}, {
  "iata": "FRXUY",
  "tgvmax_name": "AURAY",
  "name": "Auray",
  "city": "Auray",
  "location": {
    "lat": 47.66649100000001,
    "lng": -2.983767
  }
}, {
  "iata": "FRXNA",
  "tgvmax_name": "NARBONNE",
  "name": "Narbonne",
  "city": "Narbonne",
  "location": {
    "lat": 43.184277,
    "lng": 3.003078
  }
}, {
  "iata": "FRHQN",
  "tgvmax_name": "NURIEUX",
  "name": "Nurieux-Volognat",
  "city": "Nurieux-Volognat",
  "location": {
    "lat": 46.180302,
    "lng": 5.521961999999999
  }
}, {
  "iata": "FRECO",
  "tgvmax_name": "QUIMPERLE",
  "name": "Quimperlé",
  "city": "Quimperlé",
  "location": {
    "lat": 47.87258600000001,
    "lng": -3.547546
  }
}, {
  "iata": "FRPST",
  "tgvmax_name": "PARIS (intramuros)",
  "name": "Paris Gare de l'Est",
  "city": "Paris",
  "location": {
    "lat": 48.87691997745669,
    "lng": 2.35934544022634
  }
}, {
  "iata": "FRPIS",
  "tgvmax_name": "POITIERS",
  "name": "Poitiers",
  "city": "Poitiers",
  "location": {
    "lat": 46.58022400000001,
    "lng": 0.340375
  }
}, {
  "iata": "FRFSD",
  "tgvmax_name": "ASSIER",
  "name": "Assier",
  "city": "Assier",
  "location": {
    "lat": 44.674942,
    "lng": 1.878026
  }
}, {
  "iata": "FRFTA",
  "tgvmax_name": "CAUSSADE TARN ET GARONNE",
  "name": "Caussade",
  "city": "Caussade",
  "location": {
    "lat": 44.15799699999999,
    "lng": 1.542131
  }
}, {
  "iata": "FRXTB",
  "tgvmax_name": "TARBES",
  "name": "Tarbes",
  "city": "Tarbes",
  "location": {
    "lat": 43.23295100000001,
    "lng": 0.078082
  }
}, {
  "iata": "FRCRE",
  "tgvmax_name": "CREST",
  "name": "Crest",
  "city": "Crest",
  "location": {
    "lat": 44.7282749,
    "lng": 5.024071999999999
  }
}, {
  "iata": "FRINB",
  "tgvmax_name": "ST CHELY d'APCHER",
  "name": "Saint-Chély-d'Apcher",
  "city": "Saint-Chély-d'Apcher",
  "location": {
    "lat": 44.801726,
    "lng": 3.275227
  }
}, {
  "iata": "FRLNE",
  "tgvmax_name": "LUNEVILLE",
  "name": "Lunéville",
  "city": "Lunéville",
  "location": {
    "lat": 48.592237,
    "lng": 6.492338999999999
  }
}, {
  "iata": "FRINM",
  "tgvmax_name": "ST GEORGES DE LUZENCON",
  "name": "Saint-Georges-de-Luzençon",
  "city": "Saint-Georges-de-Luzençon",
  "location": {
    "lat": 44.062439,
    "lng": 2.983661
  }
}, {
  "iata": "FRRHE",
  "tgvmax_name": "REIMS",
  "name": "Reims",
  "city": "Reims",
  "location": {
    "lat": 49.258329,
    "lng": 4.031696
  }
}, {
  "iata": "FRSBK",
  "tgvmax_name": "ST BRIEUC",
  "name": "Saint-Brieuc",
  "city": "Saint-Brieuc",
  "location": {
    "lat": 48.51418,
    "lng": -2.765835
  }
}, {
  "iata": "FRINE",
  "tgvmax_name": "MARVEJOLS",
  "name": "Marvejols",
  "city": "Marvejols",
  "location": {
    "lat": 44.550133,
    "lng": 3.289894
  }
}, {
  "iata": "FRLMR",
  "tgvmax_name": "LE MONASTIER",
  "name": "Le Monastier-sur-Gazeille",
  "city": "Le Monastier-sur-Gazeille",
  "location": {
    "lat": 44.939996,
    "lng": 3.994968
  }
}, {
  "iata": "FRRNE",
  "tgvmax_name": "ROANNE",
  "name": "Roanne",
  "city": "Roanne",
  "location": {
    "lat": 46.034432,
    "lng": 4.072695
  }
}, {
  "iata": "FRETA",
  "tgvmax_name": "ETAPLES LE TOUQUET",
  "name": "Étaples - Le Touquet",
  "city": "Étaples - Le Touquet",
  "location": {
    "lat": 50.51701851757922,
    "lng": 1.6423904079915974
  }
}, {
  "iata": "FRXBC",
  "tgvmax_name": "BRIANCON",
  "name": "Briançon",
  "city": "Briançon",
  "location": {
    "lat": 44.899416,
    "lng": 6.643179
  }
}, {
  "iata": "FREPL",
  "tgvmax_name": "EPINAL",
  "name": "Épinal",
  "city": "Épinal",
  "location": {
    "lat": 48.172402,
    "lng": 6.449403
  }
}, {
  "iata": "FRXBF",
  "tgvmax_name": "BELLEGARDE",
  "name": "Bellegarde",
  "city": "Bellegarde",
  "location": {
    "lat": 43.7541102,
    "lng": 4.5138361
  }
}, {
  "iata": "FRSOU",
  "tgvmax_name": "SOUILLAC",
  "name": "Souillac",
  "city": "Souillac",
  "location": {
    "lat": 44.893626,
    "lng": 1.478613
  }
}, {
  "iata": "FRPGF",
  "tgvmax_name": "PERPIGNAN",
  "name": "Perpignan",
  "city": "Perpignan",
  "location": {
    "lat": 42.6886591,
    "lng": 2.8948332
  }
}, {
  "iata": "FRFPW",
  "tgvmax_name": "AUTERIVE",
  "name": "Auterive",
  "city": "Auterive",
  "location": {
    "lat": 43.352627,
    "lng": 1.4775069
  }
}, {
  "iata": "FRENC",
  "tgvmax_name": "NANCY",
  "name": "Nancy",
  "city": "Nancy",
  "location": {
    "lat": 48.692054,
    "lng": 6.184417
  }
}, {
  "iata": "FRTHP",
  "tgvmax_name": "TGV HAUTE PICARDIE",
  "name": "TGV Haute Picardie",
  "city": "TGV Haute Picardie",
  "location": {
    "lat": 49.8592233,
    "lng": 2.831865
  }
}, {
  "iata": "FRIMG",
  "tgvmax_name": "LE BOUSQUET d'ORB",
  "name": "Le Bousquet-d'Orb",
  "city": "Le Bousquet-d'Orb",
  "location": {
    "lat": 43.694741,
    "lng": 3.164517
  }
}, {
  "iata": "FRMPL",
  "tgvmax_name": "MONTPELLIER SAINT-ROCH",
  "name": "Montpellier Saint-Roch",
  "city": "Montpellier Saint-Roch",
  "location": {
    "lat": 43.6047981,
    "lng": 3.8807164
  }
}, {
  "iata": "FRFQK",
  "tgvmax_name": "LES CABANNES",
  "name": "Les Cabannes",
  "city": "Les Cabannes",
  "location": {
    "lat": 42.784916,
    "lng": 1.685479
  }
}, {
  "iata": "FRXFX",
  "tgvmax_name": "FOIX",
  "name": "Foix",
  "city": "Foix",
  "location": {
    "lat": 42.964127,
    "lng": 1.605232
  }
}, {
  "iata": "FRFPU",
  "tgvmax_name": "SAVERDUN",
  "name": "Saverdun",
  "city": "Saverdun",
  "location": {
    "lat": 43.233683,
    "lng": 1.575968
  }
}, {
  "iata": "FRRDZ",
  "tgvmax_name": "RODEZ",
  "name": "Rodez",
  "city": "Rodez",
  "location": {
    "lat": 44.349389,
    "lng": 2.575986
  }
}, {
  "iata": "FRXBV",
  "tgvmax_name": "BEAUNE",
  "name": "Beaune",
  "city": "Beaune",
  "location": {
    "lat": 47.02603000000001,
    "lng": 4.840004
  }
}, {
  "iata": "FRVLA",
  "tgvmax_name": "VALENCE TGV RHONE-ALPES SUD",
  "name": "Valence TGV Rhone-alpes Sud",
  "city": "Valence TGV Rhone-alpes Sud",
  "location": {
    "lat": 44.9919742,
    "lng": 4.978606699999999
  }
}, {
  "iata": "FRADE",
  "tgvmax_name": "METZ VILLE",
  "name": "Metz",
  "city": "Metz",
  "location": {
    "lat": 49.1193089,
    "lng": 6.175715599999999
  }
}, {
  "iata": "FRFQM",
  "tgvmax_name": "TARASCON SUR ARIEGE",
  "name": "Tarascon-sur-Ariège",
  "city": "Tarascon-sur-Ariège",
  "location": {
    "lat": 42.848524,
    "lng": 1.604815
  }
}, {
  "iata": "FRXLT",
  "tgvmax_name": "AX LES THERMES",
  "name": "Ax-les-Thermes",
  "city": "Ax-les-Thermes",
  "location": {
    "lat": 42.720254,
    "lng": 1.837545
  }
}, {
  "iata": "FRXMR",
  "tgvmax_name": "MARMANDE",
  "name": "Marmande",
  "city": "Marmande",
  "location": {
    "lat": 44.500484,
    "lng": 0.159869
  }
}, {
  "iata": "FRACR",
  "tgvmax_name": "LAVAL",
  "name": "Laval",
  "city": "Laval",
  "location": {
    "lat": 48.0785146,
    "lng": -0.7669906000000001
  }
}, {
  "iata": "FRXSH",
  "tgvmax_name": "ST PIERRE DES CORPS",
  "name": "Saint-Pierre-des-Corps",
  "city": "Saint-Pierre-des-Corps",
  "location": {
    "lat": 47.3898439,
    "lng": 0.7224790000000001
  }
}, {
  "iata": "FRHLE",
  "tgvmax_name": "BRASSAC LES MINES STE FLORINE",
  "name": "Brassac-les-Mines",
  "city": "Brassac-les-Mines",
  "location": {
    "lat": 45.4142089,
    "lng": 3.330134
  }
}, {
  "iata": "FRDIE",
  "tgvmax_name": "DIE",
  "name": "Die",
  "city": "Die",
  "location": {
    "lat": 44.751036,
    "lng": 5.370536
  }
}, {
  "iata": "FRMXN",
  "tgvmax_name": "MORLAIX",
  "name": "Morlaix",
  "city": "Morlaix",
  "location": {
    "lat": 48.577613,
    "lng": -3.828228
  }
}, {
  "iata": "FRFQH",
  "tgvmax_name": "MERENS LES VALS",
  "name": "Mérens-les-Vals",
  "city": "Mérens-les-Vals",
  "location": {
    "lat": 42.657838,
    "lng": 1.837437
  }
}, {
  "iata": "FRCTY",
  "tgvmax_name": "CASTELNAUDARY",
  "name": "Castelnaudary",
  "city": "Castelnaudary",
  "location": {
    "lat": 43.317118,
    "lng": 1.95333
  }
}, {
  "iata": "FRMPU",
  "tgvmax_name": "MASSY PALAISEAU",
  "name": "Massy",
  "city": "Massy",
  "location": {
    "lat": 48.730756,
    "lng": 2.27137
  }
}, {
  "iata": "FRPMS",
  "tgvmax_name": "PAMIERS",
  "name": "Pamiers",
  "city": "Pamiers",
  "location": {
    "lat": 43.114753,
    "lng": 1.607953
  }
}, {
  "iata": "FRXBU",
  "tgvmax_name": "BANYULS SUR MER",
  "name": "Banyuls-sur-Mer",
  "city": "Banyuls-sur-Mer",
  "location": {
    "lat": 42.48343,
    "lng": 3.128874
  }
}, {
  "iata": "FRFUX",
  "tgvmax_name": "LEZIGNAN-CORBIERES",
  "name": "Lézignan-Corbières",
  "city": "Lézignan-Corbières",
  "location": {
    "lat": 43.200503,
    "lng": 2.7577759
  }
}, {
  "iata": "FRAEE",
  "tgvmax_name": "PAU",
  "name": "Pau",
  "city": "Pau",
  "location": {
    "lat": 43.2951,
    "lng": -0.370797
  }
}, {
  "iata": "FRIGZ",
  "tgvmax_name": "MONTDAUPHIN GUILLESTRE",
  "name": "Montdauphin Guillestre",
  "city": "Montdauphin Guillestre",
  "location": {
    "lat": 44.674603,
    "lng": 6.615717
  }
}, {
  "iata": "FRADM",
  "tgvmax_name": "TOURCOING",
  "name": "Tourcoing",
  "city": "Tourcoing",
  "location": {
    "lat": 50.724993,
    "lng": 3.16207
  }
}, {
  "iata": "FRIOG",
  "tgvmax_name": "ELNE",
  "name": "Elne",
  "city": "Elne",
  "location": {
    "lat": 42.600336,
    "lng": 2.970433
  }
}, {
  "iata": "FRMTE",
  "tgvmax_name": "MANTES LA JOLIE",
  "name": "Mantes-la-Jolie",
  "city": "Mantes-la-Jolie",
  "location": {
    "lat": 48.989323,
    "lng": 1.714958
  }
}, {
  "iata": "FRARM",
  "tgvmax_name": "ARGELES SUR MER",
  "name": "Argelès-sur-Mer",
  "city": "Argelès-sur-Mer",
  "location": {
    "lat": 42.546214,
    "lng": 3.022911
  }
}, {
  "iata": "FRHCT",
  "tgvmax_name": "TARARE",
  "name": "Tarare",
  "city": "Tarare",
  "location": {
    "lat": 45.89676,
    "lng": 4.433425
  }
}, {
  "iata": "FRXTE",
  "tgvmax_name": "LATOUR DE CAROL ENVEITG",
  "name": "Latour-de-Carol-Enveitg",
  "city": "Latour-de-Carol-Enveitg",
  "location": {
    "lat": 42.4590675,
    "lng": 1.904519
  }
}, {
  "iata": "FRIMH",
  "tgvmax_name": "BEDARIEUX",
  "name": "Bédarieux",
  "city": "Bédarieux",
  "location": {
    "lat": 43.610054,
    "lng": 3.167373
  }
}, {
  "iata": "FRCVU",
  "tgvmax_name": "RANG DU FLIERS VERTON",
  "name": "Rang du Fliers-Verton-Berck",
  "city": "Rang du Fliers",
  "location": {
    "lat": 50.4157641,
    "lng": 1.6481162
  }
}, {
  "iata": "FRINN",
  "tgvmax_name": "ST ROME DE CERNON",
  "name": "Saint-Rome-de-Cernon",
  "city": "Saint-Rome-de-Cernon",
  "location": {
    "lat": 44.012172,
    "lng": 2.963317
  }
}, {
  "iata": "FRSVC",
  "tgvmax_name": "SEVERAC LE CHATEAU",
  "name": "Sévérac-le-Château",
  "city": "Sévérac-le-Château",
  "location": {
    "lat": 44.322012,
    "lng": 3.07105
  }
}, {
  "iata": "FRXSK",
  "tgvmax_name": "ST RAPHAEL VALESCURE",
  "name": "Saint-Raphaël Valescure",
  "city": "Saint-Raphaël Valescure",
  "location": {
    "lat": 43.423627,
    "lng": 6.769072
  }
}, {
  "iata": "FRFIG",
  "tgvmax_name": "FIGEAC",
  "name": "Figeac",
  "city": "Figeac",
  "location": {
    "lat": 44.60828799999999,
    "lng": 2.032871
  }
}, {
  "iata": "FRXTD",
  "tgvmax_name": "ST DIE DES VOSGES",
  "name": "Saint-Dié-des-Vosges",
  "city": "Saint-Dié-des-Vosges",
  "location": {
    "lat": 48.2874679,
    "lng": 6.947767
  }
}, {
  "iata": "FRADP",
  "tgvmax_name": "ROUBAIX",
  "name": "Roubaix",
  "city": "Roubaix",
  "location": {
    "lat": 50.6927049,
    "lng": 3.177847
  }
}, {
  "iata": "FRADJ",
  "tgvmax_name": "LILLE (intramuros)",
  "name": "Lille",
  "city": "Lille",
  "location": {
    "lat": 50.62925,
    "lng": 3.057256
  }
}, {
  "iata": "FRNIT",
  "tgvmax_name": "NIORT",
  "name": "Niort",
  "city": "Niort",
  "location": {
    "lat": 46.323716,
    "lng": -0.4647769999999999
  }
}, {
  "iata": "FRLLE",
  "tgvmax_name": "LILLE (intramuros)",
  "name": "Lille",
  "city": "Lille",
  "location": {
    "lat": 50.62925,
    "lng": 3.057256
  }
}, {
  "iata": "FRFQF",
  "tgvmax_name": "PORTE PUYMORENS",
  "name": "Porté-Puymorens",
  "city": "Porté-Puymorens",
  "location": {
    "lat": 42.548043,
    "lng": 1.832127
  }
}, {
  "iata": "FRRSP",
  "tgvmax_name": "ROSPORDEN",
  "name": "Rosporden",
  "city": "Rosporden",
  "location": {
    "lat": 47.959311,
    "lng": -3.828026999999999
  }
}, {
  "iata": "DEQUL",
  "tgvmax_name": "ULM HBF",
  "name": "Ulm",
  "city": "Ulm",
  "location": {
    "lat": 48.39944939999999,
    "lng": 9.9832799
  }
}, {
  "iata": "FRRNT",
  "tgvmax_name": "REMIREMONT",
  "name": "Remiremont",
  "city": "Remiremont",
  "location": {
    "lat": 48.015589,
    "lng": 6.591716
  }
}, {
  "iata": "FRFQI",
  "tgvmax_name": "LUZENAC GARANOU",
  "name": "Luzenac",
  "city": "Luzenac",
  "location": {
    "lat": 42.7645821,
    "lng": 1.7532174
  }
}, {
  "iata": "FRDHT",
  "tgvmax_name": "VERSAILLES CHANTIERS",
  "name": "Versailles-Chantiers",
  "city": "Versailles",
  "location": {
    "lat": 48.79564980000001,
    "lng": 2.1357247
  }
}, {
  "iata": "FRAVG",
  "tgvmax_name": "AVIGNON TGV",
  "name": "Avignon",
  "city": "Avignon",
  "location": {
    "lat": 43.94931700000001,
    "lng": 4.805528
  }
}, {
  "iata": "FRFQG",
  "tgvmax_name": "ANDORRE - L'HOSPITALET",
  "name": "L'Hospitalet-prés-l'Andorre",
  "city": "L'Hospitalet-prés-l'Andorre",
  "location": {
    "lat": 42.587015,
    "lng": 1.797689
  }
}, {
  "iata": "FRURD",
  "tgvmax_name": "ROUEN RIVE DROITE",
  "name": "Rouen",
  "city": "Rouen",
  "location": {
    "lat": 49.4488613,
    "lng": 1.0941284
  }
}, {
  "iata": "FRCKH",
  "tgvmax_name": "CROIX WASQUEHAL",
  "name": "Croix - Wasquehal",
  "city": "Wasquehal",
  "location": {
    "lat": 50.6785828,
    "lng": 3.1380524
  }
}, {
  "iata": "FRAEB",
  "tgvmax_name": "BOULOGNE VILLE",
  "name": "Boulogne-sur-Mer",
  "city": "Boulogne-sur-Mer",
  "location": {
    "lat": 50.725231,
    "lng": 1.613334
  }
}, {
  "iata": "FRSTH",
  "tgvmax_name": "CALAIS FRETHUN",
  "name": "Calais - Fréthun",
  "city": "Calais",
  "location": {
    "lat": 50.9014834,
    "lng": 1.8112208
  }
}, {
  "iata": "FRGAT",
  "tgvmax_name": "GAP",
  "name": "Gap",
  "city": "Gap",
  "location": {
    "lat": 48.8518356,
    "lng": 2.3735566
  }
}, {
  "iata": "FRXVZ",
  "tgvmax_name": "VIERZON VILLE",
  "name": "Vierzon",
  "city": "Vierzon",
  "location": {
    "lat": 47.221438,
    "lng": 2.069791
  }
}, {
  "iata": "FRAEZ",
  "tgvmax_name": "LE HAVRE",
  "name": "Le Havre",
  "city": "Le Havre",
  "location": {
    "lat": 49.49437,
    "lng": 0.107929
  }
}, {
  "iata": "FRQRR",
  "tgvmax_name": "TBD",
  "name": "TBD",
  "city": "TBD",
  "location": {
    "lat": 0,
    "lng": 0
  }
}, {
  "iata": "FRXHE",
  "tgvmax_name": "HYERES",
  "name": "Hyères",
  "city": "Hyères",
  "location": {
    "lat": 43.120541,
    "lng": 6.128639
  }
}, {
  "iata": "FRXRN",
  "tgvmax_name": "REDON",
  "name": "Redon",
  "city": "Redon",
  "location": {
    "lat": 47.650742,
    "lng": -2.083938
  }
}, {
  "iata": "BEBMI",
  "tgvmax_name": "BRUXELLES MIDI BRUSSEL ZUID",
  "name": "Brussels-South railway station",
  "city": "Brussels-South railway station",
  "location": {
    "lat": 50.8360982,
    "lng": 4.3354548
  }
}, {
  "iata": "FRVSV",
  "tgvmax_name": "TBD",
  "name": "TBD",
  "city": "TBD",
  "location": {
    "lat": 0,
    "lng": 0
  }
}, {
  "iata": "FRAEA",
  "tgvmax_name": "CALAIS VILLE",
  "name": "Calais",
  "city": "Calais",
  "location": {
    "lat": 50.95129000000001,
    "lng": 1.858686
  }
}, {
  "iata": "FRINC",
  "tgvmax_name": "AUMONT AUBRAC",
  "name": "Aumont-Aubrac",
  "city": "Aumont-Aubrac",
  "location": {
    "lat": 44.7223427,
    "lng": 3.2837758
  }
}, {
  "iata": "FRINJ",
  "tgvmax_name": "CAMPAGNAC ST GENIEZ",
  "name": "Campagnac - Saint-Geniez",
  "city": "Campagnac - Saint-Geniez",
  "location": {
    "lat": 44.421955,
    "lng": 3.066401
  }
}, {
  "iata": "FRBES",
  "tgvmax_name": "BREST",
  "name": "Brest",
  "city": "Brest",
  "location": {
    "lat": 48.390394,
    "lng": -4.486076
  }
}, {
  "iata": "FRINO",
  "tgvmax_name": "TOURNEMIRE ROQUEFORT",
  "name": "Tournemire - Roquefort",
  "city": "Tournemire - Roquefort",
  "location": {
    "lat": 43.9700448,
    "lng": 3.0166863
  }
}, {
  "iata": "FRIMC",
  "tgvmax_name": "CEILHES ROQUEREDONDE",
  "name": "Ceilhes - Roqueredonde",
  "city": "Ceilhes - Roqueredonde",
  "location": {
    "lat": 43.8123811,
    "lng": 3.1552544
  }
}, {
  "iata": "FRHGU",
  "tgvmax_name": "MACON VILLE",
  "name": "Mâcon",
  "city": "Mâcon",
  "location": {
    "lat": 46.3068839,
    "lng": 4.828730999999999
  }
}, {
  "iata": "FRXCE",
  "tgvmax_name": "CERBERE",
  "name": "Cerbère",
  "city": "Cerbère",
  "location": {
    "lat": 42.440965,
    "lng": 3.164723
  }
}, {
  "iata": "FRGGP",
  "tgvmax_name": "GUINGAMP",
  "name": "Guingamp",
  "city": "Guingamp",
  "location": {
    "lat": 48.561366,
    "lng": -3.148352
  }
}, {
  "iata": "DEAGB",
  "tgvmax_name": "AUGSBURG HBF",
  "name": "Augsburg",
  "city": "Augsburg",
  "location": {
    "lat": 48.3656946,
    "lng": 10.8862436
  }
}, {
  "iata": "FRXPV",
  "tgvmax_name": "PORT VENDRES VILLE",
  "name": "Port-Vendres",
  "city": "Port-Vendres",
  "location": {
    "lat": 42.518487,
    "lng": 3.106592
  }
}, {
  "iata": "FRRNS",
  "tgvmax_name": "RENNES",
  "name": "Rennes",
  "city": "Rennes",
  "location": {
    "lat": 48.117266,
    "lng": -1.6777926
  }
}, {
  "iata": "FRIMW",
  "tgvmax_name": "ST FLOUR CHAUDES AIGUES",
  "name": "Saint-Flour - Chaudes-Aigues",
  "city": "Saint-Flour - Chaudes-Aigues",
  "location": {
    "lat": 45.03491581635309,
    "lng": 3.106274319993548
  }
}, {
  "iata": "FRARV",
  "tgvmax_name": "ARVANT",
  "name": "Arvant",
  "city": "Arvant",
  "location": {
    "lat": 45.3654942,
    "lng": 3.3103654
  }
}, {
  "iata": "FRXSW",
  "tgvmax_name": "SEDAN",
  "name": "Sedan",
  "city": "Sedan",
  "location": {
    "lat": 49.70349,
    "lng": 4.93863
  }
}, {
  "iata": "FRTJB",
  "tgvmax_name": "BESANCON - F COMTE TGV",
  "name": "Université de Franche-Comté",
  "city": "Université de Franche-Comté",
  "location": {
    "lat": 47.2405045,
    "lng": 6.0226187
  }
}, {
  "iata": "FRTJA",
  "tgvmax_name": "BELFORT-MONTBELIARD TGV",
  "name": "Montbéliard",
  "city": "Montbéliard",
  "location": {
    "lat": 47.510356,
    "lng": 6.798466
  }
}, {
  "iata": "FRUIP",
  "tgvmax_name": "QUIMPER",
  "name": "Quimper",
  "city": "Quimper",
  "location": {
    "lat": 47.997542,
    "lng": -4.097899
  }
}, {
  "iata": "FRBOJ",
  "tgvmax_name": "BORDEAUX ST JEAN",
  "name": "Bordeaux Saint-Jean",
  "city": "Bordeaux Saint-Jean",
  "location": {
    "lat": 44.8264574,
    "lng": -0.5560982
  }
}, {
  "iata": "FRXTS",
  "tgvmax_name": "THONON LES BAINS",
  "name": "Thonon-les-Bains",
  "city": "Thonon-les-Bains",
  "location": {
    "lat": 46.373565,
    "lng": 6.477634999999999
  }
}, {
  "iata": "DEBEG",
  "tgvmax_name": "MUENCHEN HBF",
  "name": "Munich",
  "city": "Munich",
  "location": {
    "lat": 48.1402669,
    "lng": 11.559998
  }
}, {
  "iata": "FRLRT",
  "tgvmax_name": "LORIENT",
  "name": "Lorient",
  "city": "Lorient",
  "location": {
    "lat": 47.7482524,
    "lng": -3.3702449
  }
}, {
  "iata": "FRLPE",
  "tgvmax_name": "LYON (intramuros)",
  "name": "Lyon Perrache",
  "city": "Lyon",
  "location": {
    "lat": 45.749582625012,
    "lng": 4.826747426072184
  }
}, {
  "iata": "FRVDY",
  "tgvmax_name": "VEYNES DEVOLUY",
  "name": "Veynes Dévoluy",
  "city": "Veynes Dévoluy",
  "location": {
    "lat": 44.5320687,
    "lng": 5.8159065
  }
}, {
  "iata": "FRXVT",
  "tgvmax_name": "VITRE",
  "name": "Vitré",
  "city": "Vitré",
  "location": {
    "lat": 48.12474599999999,
    "lng": -1.21543
  }
}, {
  "iata": "FRXSB",
  "tgvmax_name": "ST MALO",
  "name": "Saint-Malo",
  "city": "Saint-Malo",
  "location": {
    "lat": 48.649337,
    "lng": -2.025674
  }
}, {
  "iata": "CHAJD",
  "tgvmax_name": "ZUERICH HB",
  "name": "Zurich HB",
  "city": "Zurich HB",
  "location": {
    "lat": 47.3778579,
    "lng": 8.5403226
  }
}, {
  "iata": "FRDOL",
  "tgvmax_name": "DOL DE BRETAGNE",
  "name": "Dol-de-Bretagne",
  "city": "Dol-de-Bretagne",
  "location": {
    "lat": 48.54969,
    "lng": -1.753965
  }
}, {
  "iata": "FRXZP",
  "tgvmax_name": "NIMES PONT DU GARD",
  "name": "Nîmes Pont-du-Gard",
  "city": "Nîmes Pont-du-Gard",
  "location": {
    "lat": 43.8168692,
    "lng": 4.5059391
  }
}, {
  "iata": "FRAFW",
  "tgvmax_name": "TOURS",
  "name": "Tours",
  "city": "Tours",
  "location": {
    "lat": 47.394144,
    "lng": 0.68484
  }
}, {
  "iata": "FRXYT",
  "tgvmax_name": "TOULOUSE MATABIAU",
  "name": "Toulouse Matabiau",
  "city": "Toulouse Matabiau",
  "location": {
    "lat": 43.6113349,
    "lng": 1.4537049
  }
}, {
  "iata": "FRGNB",
  "tgvmax_name": "GRENOBLE",
  "name": "Grenoble",
  "city": "Grenoble",
  "location": {
    "lat": 45.188529,
    "lng": 5.724524
  }
}, {
  "iata": "FRTLN",
  "tgvmax_name": "TOULON",
  "name": "Toulon",
  "city": "Toulon",
  "location": {
    "lat": 43.124228,
    "lng": 5.928
  }
}, {
  "iata": "FRMAU",
  "tgvmax_name": "MILLAU",
  "name": "Millau",
  "city": "Millau",
  "location": {
    "lat": 44.100575,
    "lng": 3.077801
  }
}, {
  "iata": "FREMR",
  "tgvmax_name": "JONZAC",
  "name": "Jonzac",
  "city": "Jonzac",
  "location": {
    "lat": 45.44536799999999,
    "lng": -0.431058
  }
}, {
  "iata": "ITTRS",
  "tgvmax_name": "TORINO PORTA SUSA",
  "name": "Porta Susa",
  "city": "Porta Susa",
  "location": {
    "lat": 45.072017,
    "lng": 7.666659
  }
}, {
  "iata": "FRXAT",
  "tgvmax_name": "ANTIBES",
  "name": "Antibes",
  "city": "Antibes",
  "location": {
    "lat": 43.58041799999999,
    "lng": 7.125102
  }
}, {
  "iata": "FRAEJ",
  "tgvmax_name": "COLMAR",
  "name": "Colmar",
  "city": "Colmar",
  "location": {
    "lat": 48.0793589,
    "lng": 7.358511999999999
  }
}, {
  "iata": "FRJDQ",
  "tgvmax_name": "LYON-SAINT EXUPERY TGV",
  "name": "Aéroport de Lyon-Saint Exupéry",
  "city": "Aéroport de Lyon-Saint Exupéry",
  "location": {
    "lat": 45.7234181,
    "lng": 5.0887768
  }
}, {
  "iata": "FRMCD",
  "tgvmax_name": "MOUCHARD",
  "name": "Mouchard",
  "city": "Mouchard",
  "location": {
    "lat": 46.975186,
    "lng": 5.7983589
  }
}, {
  "iata": "FRVHY",
  "tgvmax_name": "VICHY",
  "name": "Vichy",
  "city": "Vichy",
  "location": {
    "lat": 46.131859,
    "lng": 3.425488
  }
}, {
  "iata": "FRESL",
  "tgvmax_name": "VENDOME VILLIERS SUR LOIR",
  "name": "Vendôme - Villiers-sur-Loir",
  "city": "Vendôme - Villiers-sur-Loir",
  "location": {
    "lat": 47.822148,
    "lng": 1.0210419
  }
}, {
  "iata": "FRIMK",
  "tgvmax_name": "MAGALAS",
  "name": "Magalas",
  "city": "Magalas",
  "location": {
    "lat": 43.470887,
    "lng": 3.222528
  }
}, {
  "iata": "FRJEE",
  "tgvmax_name": "LA BAULE ESCOUBLAC",
  "name": "La Baule-Escoublac",
  "city": "La Baule-Escoublac",
  "location": {
    "lat": 47.2869183,
    "lng": -2.3913777
  }
}, {
  "iata": "FRHZA",
  "tgvmax_name": "ARLES",
  "name": "Arles",
  "city": "Arles",
  "location": {
    "lat": 43.676647,
    "lng": 4.6277769
  }
}, {
  "iata": "FRXRS",
  "tgvmax_name": "LES ARCS DRAGUIGNAN",
  "name": "Les Arcs",
  "city": "Les Arcs",
  "location": {
    "lat": 43.4552462,
    "lng": 6.4797829
  }
}, {
  "iata": "FRSAB",
  "tgvmax_name": "SABLE SUR SARTHE",
  "name": "Sablé-sur-Sarthe",
  "city": "Sablé-sur-Sarthe",
  "location": {
    "lat": 47.8404856,
    "lng": -0.3334185
  }
}, {
  "iata": "FRSNR",
  "tgvmax_name": "ST NAZAIRE",
  "name": "Saint-Nazaire",
  "city": "Saint-Nazaire",
  "location": {
    "lat": 47.2734979,
    "lng": -2.213848
  }
}, {
  "iata": "FRXCR",
  "tgvmax_name": "CHALONS EN CHAMPAGNE",
  "name": "Châlons-en-Champagne",
  "city": "Châlons-en-Champagne",
  "location": {
    "lat": 48.956682,
    "lng": 4.363073
  }
}, {
  "iata": "FRCHR",
  "tgvmax_name": "CHATEAUROUX",
  "name": "Châteauroux",
  "city": "Châteauroux",
  "location": {
    "lat": 46.811434,
    "lng": 1.686779
  }
}, {
  "iata": "FREFN",
  "tgvmax_name": "ANCENIS",
  "name": "Ancenis",
  "city": "Ancenis",
  "location": {
    "lat": 47.365464,
    "lng": -1.177491
  }
}, {
  "iata": "FRFSB",
  "tgvmax_name": "GRAMAT",
  "name": "Gramat",
  "city": "Gramat",
  "location": {
    "lat": 44.779271,
    "lng": 1.723469
  }
}, {
  "iata": "FRIGS",
  "tgvmax_name": "CHORGES",
  "name": "Chorges",
  "city": "Chorges",
  "location": {
    "lat": 44.545716,
    "lng": 6.275548000000001
  }
}, {
  "iata": "FRXMU",
  "tgvmax_name": "MOULINS SUR ALLIER",
  "name": "Moulins",
  "city": "Moulins",
  "location": {
    "lat": 46.568059,
    "lng": 3.334417
  }
}, {
  "iata": "FRSNE",
  "tgvmax_name": "SAVERNE",
  "name": "Saverne",
  "city": "Saverne",
  "location": {
    "lat": 48.741963,
    "lng": 7.361647
  }
}, {
  "iata": "FRIGV",
  "tgvmax_name": "EMBRUN",
  "name": "Embrun",
  "city": "Embrun",
  "location": {
    "lat": 44.564164,
    "lng": 6.495864999999999
  }
}, {
  "iata": "FREGR",
  "tgvmax_name": "PORNICHET",
  "name": "Pornichet",
  "city": "Pornichet",
  "location": {
    "lat": 47.263426,
    "lng": -2.340571
  }
}, {
  "iata": "FRLSO",
  "tgvmax_name": "LES SABLES d'OLONNE",
  "name": "Les Sables-d'Olonne",
  "city": "Les Sables-d'Olonne",
  "location": {
    "lat": 46.49295799999999,
    "lng": -1.795493
  }
}, {
  "iata": "FRMBC",
  "tgvmax_name": "MARSEILLE BLANCARDE",
  "name": "Blancarde",
  "city": "Blancarde",
  "location": {
    "lat": 43.3033447,
    "lng": 5.404340599999999
  }
}, {
  "iata": "FRCDC",
  "tgvmax_name": "CAPDENAC",
  "name": "Capdenac",
  "city": "Capdenac",
  "location": {
    "lat": 44.580702,
    "lng": 2.069588
  }
}, {
  "iata": "FRNVS",
  "tgvmax_name": "NEVERS",
  "name": "Nevers",
  "city": "Nevers",
  "location": {
    "lat": 46.99089600000001,
    "lng": 3.162845
  }
}, {
  "iata": "FRCCF",
  "tgvmax_name": "CARCASSONNE",
  "name": "Carcassonne",
  "city": "Carcassonne",
  "location": {
    "lat": 43.2132151,
    "lng": 2.3517703
  }
}, {
  "iata": "FRABG",
  "tgvmax_name": "BESANCON VIOTTE",
  "name": "Besançon-Viotte",
  "city": "Besançon",
  "location": {
    "lat": 47.2470436,
    "lng": 6.0219733
  }
}, {
  "iata": "FRHHD",
  "tgvmax_name": "ST ETIENNE CHATEAUCREUX",
  "name": "Saint-Étienne Châteaucreux",
  "city": "Saint-Étienne",
  "location": {
    "lat": 45.4434273,
    "lng": 4.3995031
  }
}, {
  "iata": "FRXMW",
  "tgvmax_name": "MONTAUBAN VILLE BOURBON",
  "name": "Montauban Ville Bourbon",
  "city": "Montauban Ville Bourbon",
  "location": {
    "lat": 44.0142939,
    "lng": 1.3413925
  }
}, {
  "iata": "FRCFE",
  "tgvmax_name": "CLERMONT FERRAND",
  "name": "Clermont-Ferrand",
  "city": "Clermont-Ferrand",
  "location": {
    "lat": 45.77722199999999,
    "lng": 3.087025
  }
}, {
  "iata": "FRGFI",
  "tgvmax_name": "ORTHEZ",
  "name": "Orthez",
  "city": "Orthez",
  "location": {
    "lat": 43.48755999999999,
    "lng": -0.7739279
  }
}, {
  "iata": "FRTGO",
  "tgvmax_name": "FUTUROSCOPE",
  "name": "Futuroscope",
  "city": "Futuroscope",
  "location": {
    "lat": 46.6666138,
    "lng": 0.3674498
  }
}, {
  "iata": "FRAGQ",
  "tgvmax_name": "LIMOGES BENEDICTINS",
  "name": "Limoges-Bénédictins",
  "city": "Limoges",
  "location": {
    "lat": 45.8362619,
    "lng": 1.2675462
  }
}, {
  "iata": "FRVZD",
  "tgvmax_name": "VIVIEZ DECAZEVILLE",
  "name": "Viviez - Decazeville",
  "city": "Viviez - Decazeville",
  "location": {
    "lat": 44.5555656,
    "lng": 2.2182179
  }
}, {
  "iata": "FRFRA",
  "tgvmax_name": "FRASNE",
  "name": "Frasne",
  "city": "Frasne",
  "location": {
    "lat": 46.856048,
    "lng": 6.159485999999999
  }
}, {
  "iata": "FREJC",
  "tgvmax_name": "ST MAIXENT DEUX SEVRES",
  "name": "Saint-Maixent-l'École",
  "city": "Saint-Maixent-l'École",
  "location": {
    "lat": 46.41316500000001,
    "lng": -0.20341
  }
}, {
  "iata": "CHAJP",
  "tgvmax_name": "BASEL SBB",
  "name": "Basel SBB",
  "city": "Basel SBB",
  "location": {
    "lat": 47.54758899999999,
    "lng": 7.589662
  }
}, {
  "iata": "FRRIO",
  "tgvmax_name": "RIOM CHATEL GUYON",
  "name": "Riom - Châtel-Guyon",
  "city": "Riom - Châtel-Guyon",
  "location": {
    "lat": 45.8899614,
    "lng": 3.1205167
  }
}, {
  "iata": "FRRCO",
  "tgvmax_name": "ROCHEFORT",
  "name": "Rochefort",
  "city": "Rochefort",
  "location": {
    "lat": 45.936698,
    "lng": -0.9616969999999999
  }
}, {
  "iata": "FRXJZ",
  "tgvmax_name": "ST JEAN DE LUZ CIBOURE",
  "name": "Ciboure",
  "city": "Ciboure",
  "location": {
    "lat": 43.387537,
    "lng": -1.675432
  }
}, {
  "iata": "FRIHC",
  "tgvmax_name": "L'ARGENTIERE LES ECRINS",
  "name": "L'Argentière-les-Ecrins",
  "city": "L'Argentière-les-Ecrins",
  "location": {
    "lat": 44.7910336,
    "lng": 6.5564291
  }
}, {
  "iata": "FRFSQ",
  "tgvmax_name": "AUBIN",
  "name": "Aubin",
  "city": "Aubin",
  "location": {
    "lat": 44.527578,
    "lng": 2.24646
  }
}, {
  "iata": "FRFSR",
  "tgvmax_name": "CRANSAC",
  "name": "Cransac",
  "city": "Cransac",
  "location": {
    "lat": 44.5252089,
    "lng": 2.283373
  }
}, {
  "iata": "FRACN",
  "tgvmax_name": "SAUMUR",
  "name": "Saumur",
  "city": "Saumur",
  "location": {
    "lat": 47.260135,
    "lng": -0.08089299999999999
  }
}, {
  "iata": "DEZPA",
  "tgvmax_name": "OFFENBOURG/OFFENBURG",
  "name": "Offenbourg",
  "city": "Offenbourg",
  "location": {
    "lat": 48.473451,
    "lng": 7.9498017
  }
}, {
  "iata": "FRHLB",
  "tgvmax_name": "ISSOIRE",
  "name": "Issoire",
  "city": "Issoire",
  "location": {
    "lat": 45.54151,
    "lng": 3.248128
  }
}, {
  "iata": "FRNIC",
  "tgvmax_name": "NICE VILLE",
  "name": "Nice",
  "city": "Nice",
  "location": {
    "lat": 43.7101728,
    "lng": 7.261953200000001
  }
}, {
  "iata": "FRFSI",
  "tgvmax_name": "GOURDON",
  "name": "Gourdon",
  "city": "Gourdon",
  "location": {
    "lat": 44.736788,
    "lng": 1.381867
  }
}, {
  "iata": "FRFMT",
  "tgvmax_name": "ARGENTON SUR CREUSE",
  "name": "Argenton-sur-Creuse",
  "city": "Argenton-sur-Creuse",
  "location": {
    "lat": 46.586446,
    "lng": 1.52282
  }
}, {
  "iata": "FRSZE",
  "tgvmax_name": "SAINCAIZE",
  "name": "Saincaize-Meauce",
  "city": "Saincaize-Meauce",
  "location": {
    "lat": 46.907541,
    "lng": 3.081519
  }
}, {
  "iata": "FRSDM",
  "tgvmax_name": "ST DENIS PRES MARTEL",
  "name": "Saint-Denis-Près-Martel",
  "city": "Saint-Denis-Près-Martel",
  "location": {
    "lat": 44.9460403,
    "lng": 1.6662103
  }
}, {
  "iata": "FRXOG",
  "tgvmax_name": "ORANGE",
  "name": "Boutique Orange République - Paris 3",
  "city": "Boutique Orange République - Paris 3",
  "location": {
    "lat": 48.8669441,
    "lng": 2.3635763
  }
}, {
  "iata": "FRAES",
  "tgvmax_name": "AVIGNON CENTRE",
  "name": "Avignon",
  "city": "Avignon",
  "location": {
    "lat": 43.9418131,
    "lng": 4.805317899999999
  }
}, {
  "iata": "FRHMY",
  "tgvmax_name": "MASSIAC BLESLE",
  "name": "Massiac - Blesle",
  "city": "Massiac",
  "location": {
    "lat": 45.253702,
    "lng": 3.196585
  }
}, {
  "iata": "FRACE",
  "tgvmax_name": "DOLE VILLE",
  "name": "Dole",
  "city": "Dole",
  "location": {
    "lat": 47.09534,
    "lng": 5.49081
  }
}, {
  "iata": "FRAMA",
  "tgvmax_name": "ALBI MADELEINE",
  "name": "Albi Madeleine",
  "city": "Albi Madeleine",
  "location": {
    "lat": 43.9381285,
    "lng": 2.1412281
  }
}, {
  "iata": "FRNEU",
  "tgvmax_name": "NEUSSARGUES",
  "name": "Neussargues en Pinatelle",
  "city": "Neussargues en Pinatelle",
  "location": {
    "lat": 45.1315126,
    "lng": 2.9464368
  }
}, {
  "iata": "FRXCC",
  "tgvmax_name": "LE CREUSOT MONTCEAU MONTCHANIN",
  "name": "Le Creusot Montceau",
  "city": "Le Creusot Montceau",
  "location": {
    "lat": 46.765336,
    "lng": 4.499505399999999
  }
}, {
  "iata": "DEFGB",
  "tgvmax_name": "FREIBURG BREISGAU HBF",
  "name": "Freiburg (Breisgau) Hbf",
  "city": "Freiburg (Breisgau) Hbf",
  "location": {
    "lat": 47.996655,
    "lng": 7.8403684
  }
}, {
  "iata": "CHAJF",
  "tgvmax_name": "LAUSANNE",
  "name": "Lausanne",
  "city": "Lausanne",
  "location": {
    "lat": 46.5196535,
    "lng": 6.6322734
  }
}, {
  "iata": "DEANL",
  "tgvmax_name": "LAHR SCHWARZW",
  "name": "Lahr/Schwarzwald",
  "city": "Lahr/Schwarzwald",
  "location": {
    "lat": 48.33915,
    "lng": 7.8781487
  }
}, {
  "iata": "FRAFJ",
  "tgvmax_name": "ALBI VILLE",
  "name": "Albi",
  "city": "Albi",
  "location": {
    "lat": 43.9250853,
    "lng": 2.1486413
  }
}, {
  "iata": "FRAGF",
  "tgvmax_name": "AGEN",
  "name": "Agen",
  "city": "Agen",
  "location": {
    "lat": 44.203142,
    "lng": 0.616363
  }
}, {
  "iata": "FRXCU",
  "tgvmax_name": "COLLIOURE",
  "name": "Collioure",
  "city": "Collioure",
  "location": {
    "lat": 42.52675199999999,
    "lng": 3.084631
  }
}, {
  "iata": "FRLRH",
  "tgvmax_name": "LA ROCHELLE VILLE",
  "name": "La Rochelle",
  "city": "La Rochelle",
  "location": {
    "lat": 46.160329,
    "lng": -1.151139
  }
}, {
  "iata": "FRLST",
  "tgvmax_name": "LA SOUTERRAINE",
  "name": "La Souterraine",
  "city": "La Souterraine",
  "location": {
    "lat": 46.239087,
    "lng": 1.482986
  }
}, {
  "iata": "FRPLT",
  "tgvmax_name": "PLOUARET TREGOR",
  "name": "Plouaret-Trégor",
  "city": "Plouaret-Trégor",
  "location": {
    "lat": 48.6063765,
    "lng": -3.4669424
  }
}, {
  "iata": "FRFWA",
  "tgvmax_name": "CARMAUX",
  "name": "Carmaux",
  "city": "Carmaux",
  "location": {
    "lat": 44.0500339,
    "lng": 2.16075
  }
}, {
  "iata": "FRSUF",
  "tgvmax_name": "MONTPELLIER SUD DE FRANCE",
  "name": "Montpellier Sud de France",
  "city": "Montpellier Sud de France",
  "location": {
    "lat": 43.5951782,
    "lng": 3.924271
  }
}, {
  "iata": "FRINH",
  "tgvmax_name": "BANASSAC LA CANOURGUE",
  "name": "Banassac",
  "city": "Banassac",
  "location": {
    "lat": 44.434226,
    "lng": 3.201629
  }
}, {
  "iata": "FRXBD",
  "tgvmax_name": "BAR LE DUC",
  "name": "Bar-le-Duc",
  "city": "Bar-le-Duc",
  "location": {
    "lat": 48.773605,
    "lng": 5.158238000000001
  }
}, {
  "iata": "FRFSA",
  "tgvmax_name": "ROCAMADOUR PADIRAC",
  "name": "Padirac",
  "city": "Padirac",
  "location": {
    "lat": 44.841613,
    "lng": 1.753443
  }
}, {
  "iata": "FRXMK",
  "tgvmax_name": "MONTELIMAR GARE SNCF",
  "name": "Montélimar",
  "city": "Montélimar",
  "location": {
    "lat": 44.556944,
    "lng": 4.749496
  }
}, {
  "iata": "FRZAO",
  "tgvmax_name": "CAHORS",
  "name": "Cahors",
  "city": "Cahors",
  "location": {
    "lat": 44.4475229,
    "lng": 1.441989
  }
}, {
  "iata": "FRXSQ",
  "tgvmax_name": "SELESTAT",
  "name": "Sélestat",
  "city": "Sélestat",
  "location": {
    "lat": 48.259386,
    "lng": 7.454241000000001
  }
}, {
  "iata": "FRXRO",
  "tgvmax_name": "LA ROCHE SUR YON",
  "name": "La Roche-sur-Yon",
  "city": "La Roche-sur-Yon",
  "location": {
    "lat": 46.670511,
    "lng": -1.426442
  }
}, {
  "iata": "FRXLD",
  "tgvmax_name": "LANDERNEAU",
  "name": "Landerneau",
  "city": "Landerneau",
  "location": {
    "lat": 48.450821,
    "lng": -4.248437
  }
}, {
  "iata": "FREGS",
  "tgvmax_name": "LE POULIGUEN",
  "name": "Le Pouliguen",
  "city": "Le Pouliguen",
  "location": {
    "lat": 47.269852,
    "lng": -2.425372
  }
}, {
  "iata": "FRIFP",
  "tgvmax_name": "LUC EN DIOIS",
  "name": "Luc-en-Diois",
  "city": "Luc-en-Diois",
  "location": {
    "lat": 44.6151,
    "lng": 5.452401
  }
}, {
  "iata": "FRAGR",
  "tgvmax_name": "MODANE",
  "name": "Modane",
  "city": "Modane",
  "location": {
    "lat": 45.201491,
    "lng": 6.67292
  }
}, {
  "iata": "FRSBG",
  "tgvmax_name": "SARREBOURG",
  "name": "Sarrebourg",
  "city": "Sarrebourg",
  "location": {
    "lat": 48.732663,
    "lng": 7.052587
  }
}, {
  "iata": "FRPBE",
  "tgvmax_name": "PARIS (intramuros)",
  "name": "Paris Bercy",
  "city": "Paris",
  "location": {
    "lat": 48.8391368857506,
    "lng": 2.3826248820101568
  }
}, {
  "iata": "FRPAZ",
  "tgvmax_name": "PARIS (intramuros)",
  "name": "Paris Austerlitz",
  "city": "Paris",
  "location": {
    "lat": 48.84184247333442,
    "lng": 2.36617917091243
  }
}, {
  "iata": "FREGU",
  "tgvmax_name": "LE CROISIC",
  "name": "Le Croisic",
  "city": "Le Croisic",
  "location": {
    "lat": 47.29431899999999,
    "lng": -2.511908
  }
}, {
  "iata": "FRBOU",
  "tgvmax_name": "BOURGES",
  "name": "Bourges",
  "city": "Bourges",
  "location": {
    "lat": 47.081012,
    "lng": 2.398782
  }
}, {
  "iata": "FRFMN",
  "tgvmax_name": "ISSOUDUN",
  "name": "Issoudun",
  "city": "Issoudun",
  "location": {
    "lat": 46.94753499999999,
    "lng": 1.988654
  }
}, {
  "iata": "FRXBY",
  "tgvmax_name": "BAYONNE",
  "name": "Bayonne",
  "city": "Bayonne",
  "location": {
    "lat": 43.492949,
    "lng": -1.474841
  }
}, {
  "iata": "FRBVE",
  "tgvmax_name": "BRIVE LA GAILLARDE",
  "name": "Brive-la-Gaillarde",
  "city": "Brive-la-Gaillarde",
  "location": {
    "lat": 45.159555,
    "lng": 1.533937
  }
}, {
  "iata": "FRMSC",
  "tgvmax_name": "MARSEILLE ST CHARLES",
  "name": "Saint-Charles",
  "city": "Saint-Charles",
  "location": {
    "lat": 43.3040058,
    "lng": 5.3900909
  }
}, {
  "iata": "ITMPG",
  "tgvmax_name": "MILANO P GARIBALDI",
  "name": "Milan-Porta Garibaldi",
  "city": "Milan",
  "location": {
    "lat": 45.4844806,
    "lng": 9.1873881
  }
}, {
  "iata": "FRXST",
  "tgvmax_name": "SAINTES",
  "name": "Saintes",
  "city": "Saintes",
  "location": {
    "lat": 45.744175,
    "lng": -0.633389
  }
}, {
  "iata": "FRLAI",
  "tgvmax_name": "LANNION",
  "name": "Lannion",
  "city": "Lannion",
  "location": {
    "lat": 48.732084,
    "lng": -3.459144
  }
}, {
  "iata": "FRSGF",
  "tgvmax_name": "ST GERMAIN DES FOSSES",
  "name": "Saint-Germain-des-Fossés",
  "city": "Saint-Germain-des-Fossés",
  "location": {
    "lat": 46.206776,
    "lng": 3.43472
  }
}, {
  "iata": "DEZCC",
  "tgvmax_name": "BADEN BADEN",
  "name": "Baden-Baden",
  "city": "Baden-Baden",
  "location": {
    "lat": 48.76564,
    "lng": 8.228524199999999
  }
}, {
  "iata": "FRVAF",
  "tgvmax_name": "VALENCE VILLE",
  "name": "Valence",
  "city": "Valence",
  "location": {
    "lat": 44.933393,
    "lng": 4.89236
  }
}, {
  "iata": "ITOCS",
  "tgvmax_name": "OULX CESANA CLAV SESTRIERE",
  "name": "Oulx (Stazione FS)",
  "city": "Oulx (Stazione FS)",
  "location": {
    "lat": 45.0386462,
    "lng": 6.8314435
  }
}, {
  "iata": "FRGWE",
  "tgvmax_name": "MONTBARD",
  "name": "Montbard",
  "city": "Montbard",
  "location": {
    "lat": 47.624329,
    "lng": 4.337495
  }
}, {
  "iata": "FRBFO",
  "tgvmax_name": "VITRY LE FRANCOIS GARE",
  "name": "Vitry-le-François",
  "city": "Vitry-le-François",
  "location": {
    "lat": 48.726087,
    "lng": 4.585745
  }
}, {
  "iata": "FRAAW",
  "tgvmax_name": "UZERCHE",
  "name": "Uzerche",
  "city": "Uzerche",
  "location": {
    "lat": 45.424066,
    "lng": 1.563457
  }
}, {
  "iata": "FRLAB",
  "tgvmax_name": "LES AUBRAIS ORLEANS",
  "name": "Les Aubrais",
  "city": "Orléans",
  "location": {
    "lat": 47.9265273,
    "lng": 1.9069199
  }
}, {
  "iata": "CHAGL",
  "tgvmax_name": "VALLORBE",
  "name": "Vallorbe",
  "city": "Vallorbe",
  "location": {
    "lat": 46.71199650000001,
    "lng": 6.3791102
  }
}, {
  "iata": "CHACE",
  "tgvmax_name": "TBD",
  "name": "TBD",
  "city": "TBD",
  "location": {
    "lat": 0,
    "lng": 0
  }
}, {
  "iata": "ITAAC",
  "tgvmax_name": "VERCELLI",
  "name": "Verceil",
  "city": "Verceil",
  "location": {
    "lat": 45.32022720000001,
    "lng": 8.418573499999999
  }
}, {
  "iata": "FRHPN",
  "tgvmax_name": "ST JEAN DE MAURIENNE ARVAN",
  "name": "Saint-Jean-de-Maurienne",
  "city": "Saint-Jean-de-Maurienne",
  "location": {
    "lat": 45.275403,
    "lng": 6.344886
  }
}, {
  "iata": "ITBCC",
  "tgvmax_name": "BARDONECCHIA STAZIONE",
  "name": "Bardonecchia",
  "city": "Bardonecchia",
  "location": {
    "lat": 45.0763604,
    "lng": 6.709861099999999
  }
}, {
  "iata": "FRLAM",
  "tgvmax_name": "LAMBALLE",
  "name": "Lamballe",
  "city": "Lamballe",
  "location": {
    "lat": 48.468637,
    "lng": -2.517322
  }
}, {
  "iata": "FRXCD",
  "tgvmax_name": "CHALON SUR SAONE",
  "name": "Chalon-sur-Saône",
  "city": "Chalon-sur-Saône",
  "location": {
    "lat": 46.780764,
    "lng": 4.853947
  }
}, {
  "iata": "FRAEF",
  "tgvmax_name": "HENDAYE",
  "name": "Hendaye",
  "city": "Hendaye",
  "location": {
    "lat": 43.359399,
    "lng": -1.766148
  }
}, {
  "iata": "FRJCA",
  "tgvmax_name": "CANNES",
  "name": "Cannes",
  "city": "Cannes",
  "location": {
    "lat": 43.55402625446898,
    "lng": 7.019652537464657
  }
}, {
  "iata": "FRBIQ",
  "tgvmax_name": "BIARRITZ",
  "name": "Biarritz",
  "city": "Biarritz",
  "location": {
    "lat": 43.459550370306914,
    "lng": -1.545925031123468
  }
}, {
  "iata": "FRMAZ",
  "tgvmax_name": "MIRAMAS",
  "name": "Miramas",
  "city": "Miramas",
  "location": {
    "lat": 43.58085655913059,
    "lng": 4.999569811208653
  }
}, {
  "iata": "FRLCN",
  "tgvmax_name": "LUCON",
  "name": "Luçon",
  "city": "Luçon",
  "location": {
    "lat": 46.46390473305664,
    "lng": -1.167530832874322
  }
}, {
  "iata": "ITAAB",
  "tgvmax_name": "NOVARA",
  "name": "Novara",
  "city": "Novara",
  "location": {
    "lat": 45.45292694339393,
    "lng": 8.626554514499936
  }
}, {
  "iata": "FRFST",
  "tgvmax_name": "ST CHRISTOPHE",
  "name": "Saint-Christophe-Vallon",
  "city": "Saint-Christophe-Vallon",
  "location": {
    "lat": 44.46483257441278,
    "lng": 2.40774056890951
  }
}, {
  "iata": "DEBDU",
  "tgvmax_name": "EMMENDINGEN",
  "name": "Emmendingen",
  "city": "Emmendingen",
  "location": {
    "lat": 48.11947632644384,
    "lng": 7.8482895997224835
  }
}]